{"type":"FeatureCollection","features":[{"type":"Feature","properties":{"id":1,"name":"Alabama","estimate":185821},"geometry":{"type":"Point","coordinates":[-86.82617715,33.09562331]}},{"type":"Feature","properties":{"id":2,"name":"Alaska","estimate":30706},"geometry":{"type":"Point","coordinates":[-152.2066238,64.08836978]}},{"type":"Feature","properties":{"id":3,"name":"Arizona","estimate":305421},"geometry":{"type":"Point","coordinates":[-111.6583542,34.29398982]}},{"type":"Feature","properties":{"id":4,"name":"Arkansas","estimate":106615},"geometry":{"type":"Point","coordinates":[-92.47755898,34.63598323]}},{"type":"Feature","properties":{"id":5,"name":"California","estimate":2304454},"geometry":{"type":"Point","coordinates":[-119.4493904,37.16635039]}},{"type":"Feature","properties":{"id":6,"name":"Colorado","estimate":409654},"geometry":{"type":"Point","coordinates":[-105.4994666,39.0013529]}},{"type":"Feature","properties":{"id":7,"name":"Connecticut","estimate":204766},"geometry":{"type":"Point","coordinates":[-72.76882044,41.63378291]}},{"type":"Feature","properties":{"id":8,"name":"Delaware","estimate":45582},"geometry":{"type":"Point","coordinates":[-75.54452926,39.00603695]}},{"type":"Feature","properties":{"id":9,"name":"District of Columbia","estimate":112747},"geometry":{"type":"Point","coordinates":[-77.02494234,38.91557963]}},{"type":"Feature","properties":{"id":10,"name":"Florida","estimate":919494},"geometry":{"type":"Point","coordinates":[-81.723132,28.96768166]}},{"type":"Feature","properties":{"id":11,"name":"Georgia","estimate":525582},"geometry":{"type":"Point","coordinates":[-83.43763232,32.66269229]}},{"type":"Feature","properties":{"id":12,"name":"Hawaii","estimate":66857},"geometry":{"type":"Point","coordinates":[-157.9255127,21.42932725]}},{"type":"Feature","properties":{"id":13,"name":"Idaho","estimate":71991},"geometry":{"type":"Point","coordinates":[-114.4009237,44.27272759]}},{"type":"Feature","properties":{"id":14,"name":"Illinois","estimate":758759},"geometry":{"type":"Point","coordinates":[-89.18486261,40.05285731]}},{"type":"Feature","properties":{"id":15,"name":"Indiana","estimate":281065},"geometry":{"type":"Point","coordinates":[-86.15733232,39.76815366]}},{"type":"Feature","properties":{"id":16,"name":"Iowa","estimate":142676},"geometry":{"type":"Point","coordinates":[-93.63394069,42.53248285]}},{"type":"Feature","properties":{"id":17,"name":"Kansas","estimate":139459},"geometry":{"type":"Point","coordinates":[-98.39427228,38.51212516]}},{"type":"Feature","properties":{"id":18,"name":"Kentucky","estimate":179707},"geometry":{"type":"Point","coordinates":[-84.96113144,37.65204021]}},{"type":"Feature","properties":{"id":19,"name":"Louisiana","estimate":179377},"geometry":{"type":"Point","coordinates":[-92.34894472,30.81757005]}},{"type":"Feature","properties":{"id":20,"name":"Maine","estimate":61281},"geometry":{"type":"Point","coordinates":[-68.76663985,45.34316497]}},{"type":"Feature","properties":{"id":21,"name":"Maryland","estimate":364196},"geometry":{"type":"Point","coordinates":[-76.43275646,39.18330424]}},{"type":"Feature","properties":{"id":22,"name":"Massachusetts","estimate":550749},"geometry":{"type":"Point","coordinates":[-71.91423273,42.42535072]}},{"type":"Feature","properties":{"id":23,"name":"Michigan","estimate":456629},"geometry":{"type":"Point","coordinates":[-85.37396222,44.67376827]}},{"type":"Feature","properties":{"id":24,"name":"Minnesota","estimate":334387},"geometry":{"type":"Point","coordinates":[-93.73130412,46.43853836]}},{"type":"Feature","properties":{"id":25,"name":"Mississippi","estimate":93446},"geometry":{"type":"Point","coordinates":[-89.52606688,32.87614022]}},{"type":"Feature","properties":{"id":26,"name":"Missouir","estimate":290784},"geometry":{"type":"Point","coordinates":[-92.48870996,38.67693648]}},{"type":"Feature","properties":{"id":27,"name":"Montana","estimate":50052},"geometry":{"type":"Point","coordinates":[-109.4345655,47.46410965]}},{"type":"Feature","properties":{"id":28,"name":"Nebraska","estimate":99069},"geometry":{"type":"Point","coordinates":[-99.76902691,41.50245395]}},{"type":"Feature","properties":{"id":29,"name":"Nevada","estimate":115196},"geometry":{"type":"Point","coordinates":[-116.4689727,39.39436469]}},{"type":"Feature","properties":{"id":30,"name":"New Hampshire","estimate":73381},"geometry":{"type":"Point","coordinates":[-71.56052547,43.46516116]}},{"type":"Feature","properties":{"id":31,"name":"New Jersey","estimate":577604},"geometry":{"type":"Point","coordinates":[-74.44851817,40.26238509]}},{"type":"Feature","properties":{"id":32,"name":"New Mexico","estimate":73218},"geometry":{"type":"Point","coordinates":[-105.7929331,34.25131614]}},{"type":"Feature","properties":{"id":33,"name":"New York","estimate":1386225},"geometry":{"type":"Point","coordinates":[-75.85597827,42.9239082]}},{"type":"Feature","properties":{"id":34,"name":"North Carolina","estimate":516294},"geometry":{"type":"Point","coordinates":[-79.42150601,35.72482028]}},{"type":"Feature","properties":{"id":35,"name":"North Dakota","estimate":40175},"geometry":{"type":"Point","coordinates":[-100.3635432,47.59642568]}},{"type":"Feature","properties":{"id":36,"name":"Ohio","estimate":540795},"geometry":{"type":"Point","coordinates":[-82.86827694,40.24850733]}},{"type":"Feature","properties":{"id":37,"name":"Oklahoma","estimate":144807},"geometry":{"type":"Point","coordinates":[-97.52004105,35.47071589]}},{"type":"Feature","properties":{"id":38,"name":"Oregon","estimate":217717},"geometry":{"type":"Point","coordinates":[-120.4823154,44.38305139]}},{"type":"Feature","properties":{"id":39,"name":"Pennsylvania","estimate":710591},"geometry":{"type":"Point","coordinates":[-77.77570982,40.8790476]}},{"type":"Feature","properties":{"id":40,"name":"Rhode Island","estimate":63578},"geometry":{"type":"Point","coordinates":[-71.48835188,41.72247533]}},{"type":"Feature","properties":{"id":41,"name":"South Carolina","estimate":215670},"geometry":{"type":"Point","coordinates":[-81.04787908,33.99764165]}},{"type":"Feature","properties":{"id":42,"name":"South Dakota","estimate":39195},"geometry":{"type":"Point","coordinates":[-100.3370203,44.44169438]}},{"type":"Feature","properties":{"id":43,"name":"Tennessee","estimate":320723},"geometry":{"type":"Point","coordinates":[-86.83794826,35.81904418]}},{"type":"Feature","properties":{"id":44,"name":"Texas","estimate":1431634},"geometry":{"type":"Point","coordinates":[-99.37506727,31.42478871]}},{"type":"Feature","properties":{"id":45,"name":"Utah","estimate":173007},"geometry":{"type":"Point","coordinates":[-111.6920052,39.19498156]}},{"type":"Feature","properties":{"id":46,"name":"Vermont","estimate":34707},"geometry":{"type":"Point","coordinates":[-72.70918483,44.07724804]}},{"type":"Feature","properties":{"id":47,"name":"Virginia","estimate":510336},"geometry":{"type":"Point","coordinates":[-78.46000738,37.5377311]}},{"type":"Feature","properties":{"id":48,"name":"Washington","estimate":479132},"geometry":{"type":"Point","coordinates":[-119.9994955,47.23562062]}},{"type":"Feature","properties":{"id":49,"name":"West Virginia","estimate":55522},"geometry":{"type":"Point","coordinates":[-80.70045591,38.68466336]}},{"type":"Feature","properties":{"id":50,"name":"Wisconsin","estimate":274545},"geometry":{"type":"Point","coordinates":[-89.8021122,44.50085127]}},{"type":"Feature","properties":{"id":51,"name":"Wyoming","estimate":20596},"geometry":{"type":"Point","coordinates":[-107.5432591,43.41555109]}},{"type":"Feature","properties":{"id":52,"name":"Puerto Rico","estimate":146730},"geometry":{"type":"Point","coordinates":[-66.52034696,18.22939984]}}]}